City_ID,City,Lat,Lng,Max Temp,Humidity,Cloudiness,Wind Speed,Country,Date
0,carutapera,-1.195,-46.02,25.2,82,8,2.5,BR,1701314322
1,thompson,55.7435,-97.8558,-17.27,82,95,3.31,CA,1701313756
2,grytviken,-54.2811,-36.5092,3.24,89,72,0.92,GS,1701314322
3,adamstown,-25.066,-130.1015,21.57,77,100,4.75,PN,1701314323
4,dudinka,69.4058,86.1778,-17.99,100,100,0.66,RU,1701313496
5,waitangi,-43.9535,-176.5597,13.23,72,21,4.92,NZ,1701314323
6,margaret river,-33.95,115.0667,22.92,58,89,5.79,AU,1701314323
7,bethel,41.3712,-73.414,0.36,58,100,2.57,US,1701313725
8,haiku-pauwela,20.9219,-156.3051,26.25,79,40,3.09,US,1701313773
9,olonkinbyen,70.9221,-8.7187,-1.82,90,94,7.15,SJ,1701313724
10,edinburgh of the seven seas,-37.0676,-12.3116,12.18,65,15,9.66,SH,1701313724
11,puerto deseado,-47.7503,-65.8938,17.34,35,90,12.9,AR,1701313753
12,tinajo,29.0788,-13.7081,19.49,73,20,3.09,ES,1701314323
13,enewetak,11.3474,162.3373,27.74,79,58,9.06,MH,1701313731
14,puerto ayora,-0.7393,-90.3518,24.75,89,37,1.34,EC,1701313724
15,bermejillo,25.8833,-103.6167,19.02,59,3,1.77,MX,1701314324
16,wailua homesteads,22.0669,-159.378,23.24,85,75,6.17,US,1701313731
17,port-aux-francais,-49.35,70.2167,2.2,97,100,21.56,TF,1701314324
18,georgetown,5.4112,100.3354,30.53,76,20,2.06,MY,1701313434
19,sao joao da barra,-21.6403,-41.0511,24.15,87,100,7.16,BR,1701314324
20,bredasdorp,-34.5322,20.0403,14.58,88,91,2.58,ZA,1701314324
21,port mathurin,-19.6833,63.4167,25.04,66,0,5.63,MU,1701313728
22,ribeira grande,38.5167,-28.7,14.87,71,84,8.49,PT,1701314324
23,puerto natales,-51.7236,-72.4875,5.64,88,99,8.28,CL,1701314324
24,ilulissat,69.2167,-51.1,5.01,52,80,11.83,GL,1701313737
25,papatowai,-46.5619,169.4708,10.67,68,100,4.92,NZ,1701314324
26,yellowknife,62.456,-114.3525,-17.47,95,40,2.57,CA,1701314058
27,iqaluit,63.7506,-68.5145,-0.15,80,100,7.2,CA,1701314325
28,les anglais,18.3054,-74.2197,25.56,83,82,0.24,HT,1701313751
29,udachny,66.4167,112.4,-11.97,92,100,12.02,RU,1701313454
30,blackmans bay,-43.0167,147.3167,15.07,70,100,4.63,AU,1701314325
31,qaqortoq,60.7167,-46.0333,-2.23,68,100,6.47,GL,1701313434
32,aberdeen,57.1437,-2.0981,2.27,90,20,4.12,GB,1701314140
33,bilibino,68.0546,166.4372,-34.73,98,12,1.46,RU,1701314325
34,luderitz,-26.6481,15.1594,16.9,70,0,3.21,NA,1701313729
35,punta arenas,-53.15,-70.9167,7.06,81,75,6.17,CL,1701314325
36,kunyang,27.6658,120.5658,14.35,64,97,3.01,CN,1701314325
37,tralee,52.2704,-9.7026,0.78,85,84,3.9,IE,1701314326
38,santa elena de uairen,4.6167,-61.1333,20.28,70,91,2.09,VE,1701314326
39,pacific grove,36.6177,-121.9166,14.25,88,75,0.45,US,1701313787
40,gadzhiyevo,69.2551,33.3362,-1.32,95,100,5.47,RU,1701313737
41,saldanha,-33.0117,17.9442,18.06,56,91,2.16,ZA,1701313742
42,nagqu,31.5,92.0,-5.34,55,92,2.76,CN,1701314326
43,whitehorse,60.7161,-135.0538,-8.88,85,75,7.2,CA,1701314199
44,sao jose da coroa grande,-8.8978,-35.1478,24.46,77,4,2.26,BR,1701314326
45,mahina,-17.5065,-149.489,29.87,70,75,3.6,PF,1701313648
46,porto novo,6.4965,2.6036,26.9,87,94,1.98,BJ,1701314326
47,broken hill,-31.95,141.4333,24.64,36,67,5.11,AU,1701313813
48,remire-montjoly,4.9167,-52.2667,27.02,83,20,0.0,GF,1701313750
49,tiksi,71.6872,128.8694,-20.72,92,100,11.25,RU,1701314327
50,chonchi,-42.6128,-73.8092,11.73,92,99,2.11,CL,1701314327
51,khanty-mansiysk,61.0042,69.0019,-13.94,85,0,1.0,RU,1701313736
52,selfoss,63.9331,-20.9971,0.33,97,98,2.42,IS,1701313777
53,nemuro,43.3236,145.575,0.03,41,45,10.06,JP,1701313779
54,mersa matruh,31.3525,27.2453,16.03,51,99,3.32,EG,1701314327
55,west island,-12.1568,96.8225,27.99,65,40,6.69,CC,1701314327
56,college,64.8569,-147.8028,-11.03,86,75,0.0,US,1701314327
57,kodiak,57.79,-152.4072,1.73,87,100,10.8,US,1701313457
58,ushuaia,-54.8,-68.3,6.81,61,75,4.63,AR,1701314328
59,north battleford,52.7834,-108.2847,-0.89,64,100,5.66,CA,1701314328
60,vredendal,-31.6683,18.5012,21.16,25,72,3.74,ZA,1701314328
61,uwajima,33.2238,132.56,10.39,76,100,6.56,JP,1701314259
62,magistral'nyy,56.1725,107.4458,-16.46,91,100,2.17,RU,1701314328
63,puerto baquerizo moreno,-0.9,-89.6,24.26,78,52,4.01,EC,1701313737
64,sur,22.5667,59.5289,23.59,67,0,3.1,OM,1701314328
65,vinga,46.0167,21.2,-1.63,86,100,4.12,RO,1701314328
66,yei,4.095,30.6779,19.48,91,98,1.31,SS,1701314328
67,xishan,27.6667,113.5,13.23,51,99,2.72,CN,1701314329
68,hammerfest,70.6634,23.6821,-0.75,74,100,6.17,NO,1701313798
69,hawaiian paradise park,19.5933,-154.9731,25.73,93,75,0.89,US,1701314329
70,alpena,45.0617,-83.4327,1.18,85,100,3.6,US,1701314329
71,vilyuchinsk,52.9306,158.4028,-4.3,73,100,4.61,RU,1701313739
72,ust-nera,64.5667,143.2,-25.66,97,99,3.04,RU,1701314331
73,pitimbu,-7.4706,-34.8086,25.33,75,51,4.69,BR,1701314331
74,souillac,-20.5167,57.5167,24.84,75,5,3.4,MU,1701313735
75,kerikeri,-35.2268,173.9474,21.62,60,100,0.89,NZ,1701314331
76,kirkwall,58.9848,-2.9587,4.03,75,75,4.12,GB,1701314331
77,tateyama,34.9833,139.8667,17.28,50,16,12.98,JP,1701314331
78,puerto santa,-8.9906,-78.6456,18.99,88,99,3.89,PE,1701314332
79,porbandar,21.6422,69.6093,20.99,73,0,4.12,IN,1701314332
80,petropavlovsk-kamchatsky,53.0452,158.6483,-5.12,65,75,3.58,RU,1701313743
81,vera,-29.4593,-60.2126,25.11,76,96,4.31,AR,1701314332
82,kachug,53.9606,105.8817,-15.48,81,100,0.99,RU,1701314332
83,albany,42.6001,-73.9662,-1.54,70,62,0.45,US,1701314332
84,leer,53.2316,7.461,-1.15,93,20,1.84,DE,1701314202
85,hithadhoo,-0.6,73.0833,28.06,74,100,6.0,MV,1701313782
86,namp'o,38.7375,125.4078,-2.12,49,79,6.79,KP,1701314332
87,irati,-25.4672,-50.6511,18.43,99,6,0.64,BR,1701314333
88,lompoc,34.6391,-120.4579,14.08,88,0,0.89,US,1701314278
89,invercargill,-46.4,168.35,13.34,68,73,4.92,NZ,1701314333
90,howard springs,-12.497,131.047,37.21,58,29,3.13,AU,1701314333
91,tafuna,-14.3358,-170.72,28.1,79,52,8.77,AS,1701314333
92,argostolion,38.1811,20.489,13.75,61,1,2.52,GR,1701314333
93,port alfred,-33.5906,26.891,15.58,74,9,5.06,ZA,1701314333
94,halifax,44.6453,-63.5724,-1.96,81,37,4.92,CA,1701314333
95,izyum,49.2088,37.2485,-0.66,87,98,3.35,UA,1701314314
96,ed damer,17.5928,33.9592,23.07,66,12,4.28,SD,1701314334
97,ubari,26.5921,12.7805,15.26,26,0,1.97,LY,1701314334
98,namibe,-15.1961,12.1522,23.05,86,99,2.3,AO,1701313792
99,vila velha,-20.3297,-40.2925,25.97,86,0,5.36,BR,1701314145
100,faya-largeau,17.9257,19.1043,23.02,28,4,5.93,TD,1701314334
101,iskateley,67.6803,53.1512,-13.32,93,72,4.47,RU,1701314334
102,tashir,41.1207,44.2846,0.49,53,84,4.05,AM,1701314334
103,meadow lake,34.8014,-106.5436,7.3,53,76,1.39,US,1701314334
104,turpan,42.9333,89.1667,6.03,32,11,1.02,CN,1701314334
105,vetluzhskiy,58.3902,45.4654,-10.54,98,90,1.34,RU,1701314334
106,touros,-5.1989,-35.4608,25.67,82,88,4.58,BR,1701313770
107,sakaiminato,35.55,133.2333,8.99,66,75,4.63,JP,1701314334
108,sao mateus do sul,-25.8742,-50.3828,18.23,99,3,0.67,BR,1701314335
109,ataq,14.5377,46.8319,17.39,49,31,0.84,YE,1701313796
110,laguna,38.421,-121.4238,12.23,65,0,0.0,US,1701314247
111,kingston,17.997,-76.7936,27.53,83,20,1.54,JM,1701313556
112,akaltara,22.0167,82.4333,23.53,55,64,1.55,IN,1701314335
113,zayed city,24.3768,54.589,26.67,70,40,1.54,AE,1701314335
114,bokoro,12.3807,17.0568,24.54,24,35,4.47,TD,1701314335
115,moussoro,13.6408,16.4901,24.81,22,7,4.65,TD,1701314335
116,badger,64.8,-147.5333,-11.07,88,40,0.0,US,1701314335
117,bardai,11.65,7.2333,21.69,25,19,3.86,NG,1701314335
118,serowe,-22.3833,26.7167,17.92,77,76,8.29,BW,1701314336
119,stanley,54.868,-1.6985,0.29,93,75,2.06,GB,1701314336
120,nar'yan-mar,67.6713,53.087,-13.27,93,75,4.47,RU,1701314336
121,ta`u,-14.2336,-169.5144,27.83,81,72,9.15,AS,1701313794
122,talnakh,69.4865,88.3972,-19.33,98,99,0.75,RU,1701314336
123,northam,51.0333,-4.2167,2.56,86,89,7.42,GB,1701313815
124,rudnichnyy,59.617,52.4703,-13.8,99,100,1.7,RU,1701314336
125,fauske,67.2588,15.3918,-2.9,77,100,2.95,NO,1701314336
126,filipstad,59.7124,14.1683,-3.19,89,100,3.47,SE,1701314336
127,lebu,-37.6167,-73.65,11.92,90,0,6.14,CL,1701313753
128,gobabis,-22.45,18.9667,22.1,37,15,4.67,NA,1701314337
129,atafu village,-8.5421,-172.5159,29.48,73,34,6.98,TK,1701314337
130,castillos,-34.1667,-53.8333,19.33,93,81,3.69,UY,1701314337
131,cambria,35.5641,-121.0808,13.36,92,25,0.89,US,1701314337
132,laojunmiao,39.8333,97.7333,-1.19,27,0,2.66,CN,1701313797
133,luena,-11.7833,19.9167,16.52,98,98,1.67,AO,1701314337
134,stornoway,58.2093,-6.3865,5.98,81,75,6.17,GB,1701314337
135,hermanus,-34.4187,19.2345,16.34,75,78,4.85,ZA,1701313766
136,skelleftea,64.7507,20.9528,-3.8,100,100,4.63,SE,1701314337
137,susuman,62.7833,148.1667,-22.78,100,97,0.89,RU,1701314338
138,cabo san lucas,22.8909,-109.9124,25.42,80,0,3.09,MX,1701314230
139,mil'kovo,55.6078,37.7956,-0.33,93,100,7.23,RU,1701314338
140,santa ana de yacuma,-13.75,-65.4333,24.61,89,95,2.54,BO,1701314338
141,vallenar,-28.5708,-70.7581,18.66,54,0,1.74,CL,1701314234
142,mitu,1.1983,-70.1733,22.38,98,100,0.92,CO,1701313788
143,carnarvon,-24.8667,113.6333,25.02,55,2,5.51,AU,1701313786
144,petrolina,-9.3986,-40.5008,29.03,37,0,6.17,BR,1701314045
145,shenjiamen,29.9576,122.298,12.42,64,93,8.63,CN,1701314338
146,croix-des-bouquets,18.575,-72.225,24.79,78,48,2.57,HT,1701314338
147,anadyr,64.75,177.4833,-2.72,93,75,6.0,RU,1701314338
148,ponta delgada,37.7333,-25.6667,17.33,88,75,11.32,PT,1701313750
149,lihue,21.9789,-159.3672,23.58,83,75,6.17,US,1701314328
150,kruisfontein,-34.0033,24.7314,10.4,91,25,2.89,ZA,1701313797
151,dzhambeyty,50.2536,52.595,0.19,83,89,2.69,KZ,1701314339
152,santiago de cao,-7.9589,-79.2392,19.07,88,94,3.6,PE,1701314339
153,princeville,45.7668,-61.2985,-1.99,84,0,4.63,CA,1701314339
154,pyin oo lwin,22.0333,96.4667,18.69,72,100,1.35,MM,1701314339
155,la ronge,55.1001,-105.2842,-5.53,89,99,4.16,CA,1701313797
156,gadani,25.1185,66.7299,16.12,33,22,1.93,PK,1701314339
157,tostado,-29.232,-61.7692,21.41,92,97,5.19,AR,1701314339
158,katsuren-haebaru,26.3369,127.8719,26.43,55,75,5.14,JP,1701314277
159,huarmey,-10.0681,-78.1522,19.9,85,55,3.92,PE,1701314339
160,kourou,5.1552,-52.6478,27.03,89,6,2.8,GF,1701314339
161,barcelos,41.5388,-8.6151,14.08,94,100,3.29,PT,1701314247
162,longyearbyen,78.2186,15.6401,-4.09,86,100,6.69,SJ,1701314340
163,lethem,3.3803,-59.7968,26.92,59,18,3.37,GY,1701314340
164,inarajan village,13.2736,144.7484,32.54,81,5,8.34,GU,1701314340
165,utrik,11.2278,169.8474,27.57,73,100,9.31,MH,1701314340
166,khandyga,62.6667,135.6,-26.95,96,100,2.72,RU,1701314340
167,polyarnyy,69.1989,33.4478,-1.27,95,100,5.23,RU,1701314340
168,nova sintra,14.8667,-24.7167,22.14,71,68,1.31,CV,1701313758
169,vorgashor,67.5833,63.95,-15.67,95,24,2.85,RU,1701313791
170,jamestown,42.097,-79.2353,0.77,63,100,5.66,US,1701313774
171,igarka,67.4667,86.5833,-20.63,95,96,2.79,RU,1701314341
172,keflavik,64.0049,-22.5624,3.24,93,75,3.6,IS,1701314341
173,kaa-khem,51.6833,94.7333,-20.54,97,43,0.41,RU,1701314341
174,flying fish cove,-10.4217,105.6791,28.82,65,40,5.14,CX,1701314341
175,yakeshi,49.2833,120.7333,-19.96,91,71,2.99,CN,1701314341
176,kenai,60.5544,-151.2583,2.05,92,100,9.77,US,1701314341
177,kavaratti,10.5669,72.642,28.67,73,55,4.34,IN,1701314053
178,uturoa,-16.7333,-151.4333,27.07,82,96,8.45,PF,1701313748
179,lys'va,58.1086,57.8053,-3.0,98,100,1.21,RU,1701314342
180,kununurra,-15.7667,128.7333,36.99,39,5,3.6,AU,1701314342
181,tura,25.5198,90.2201,23.14,56,0,1.0,IN,1701314342
182,bamboo flat,11.7,92.7167,29.05,74,75,4.12,IN,1701314046
183,mount isa,-20.7333,139.5,31.87,20,100,3.09,AU,1701313781
184,leava,-14.3,-178.1667,28.88,77,75,6.84,WF,1701313789
185,valdosta,30.8327,-83.2785,4.43,85,0,0.0,US,1701314343
186,midvagur,62.0511,-7.1939,3.46,81,75,9.26,FO,1701314343
187,formosa do rio preto,-11.0483,-45.1931,24.72,47,73,1.49,BR,1701314343
188,uelzen,52.9667,10.5667,-1.95,93,89,1.26,DE,1701314344
189,cockburn town,21.4612,-71.1419,26.57,79,69,6.35,TC,1701314058
190,howrah,22.5892,88.3103,24.0,83,2,2.06,IN,1701314344
191,mawu,29.5923,107.3139,10.98,80,100,1.69,CN,1701314344
192,cidreira,-30.1811,-50.2056,20.89,92,24,5.83,BR,1701314102
193,new plymouth,-39.0667,174.0833,15.17,54,28,4.82,NZ,1701313780
194,san bernardo del viento,9.3533,-75.9524,26.91,85,55,4.21,CO,1701314345
195,papao,-17.75,-149.55,29.82,87,97,10.52,PF,1701314345
196,forio,40.7342,13.8646,14.73,76,59,0.45,IT,1701314345
197,bairnsdale,-37.8333,147.6167,15.59,99,100,3.58,AU,1701313765
198,greymouth,-42.4667,171.2,13.49,67,85,3.34,NZ,1701314346
199,ujae,8.9322,165.7642,27.95,69,87,7.36,MH,1701314346
200,tolanaro,-25.0319,46.9987,24.3,79,95,1.12,MG,1701314346
201,pilona,43.35,-5.3667,12.33,96,100,1.62,ES,1701314346
202,alo,7.4178,6.7371,25.04,77,99,1.28,NG,1701314347
203,mejit,10.2753,170.8646,27.63,76,100,8.57,MH,1701313784
204,nizhnesortymskiy,62.4397,71.7603,-15.81,97,45,2.07,RU,1701314347
205,santo tome,-31.6627,-60.7653,24.43,81,98,3.32,AR,1701314347
206,viedma,-40.8135,-62.9967,16.79,77,0,6.86,AR,1701314347
207,poltavka,54.3663,71.7632,-2.44,89,95,2.83,RU,1701314348
208,juan griego,11.0817,-63.9655,25.83,86,0,5.25,VE,1701313635
209,coxim,-18.5067,-54.76,28.46,50,6,0.47,BR,1701314348
210,rajin,42.2489,130.3003,-5.15,36,0,6.84,KP,1701314348
211,saint-benoit,-21.038,55.7194,26.67,78,50,2.9,RE,1701314348
212,velikiy ustyug,60.7644,46.3106,-11.45,98,77,0.89,RU,1701314349
213,paradip garh,20.3167,86.6167,25.28,56,25,3.76,IN,1701314349
214,richards bay,-28.783,32.0377,17.3,73,19,3.76,ZA,1701314049
215,acarau,-2.8856,-40.12,26.24,79,2,4.09,BR,1701314349
216,hotan,37.0997,79.9269,3.56,28,100,1.24,CN,1701314349
217,taro,-8.3862,115.28,25.0,77,70,1.44,ID,1701314349
218,ar raqqah,35.95,39.0167,9.86,65,15,3.62,SY,1701314350
219,kushtagi,15.7667,76.2,22.43,83,65,5.03,IN,1701314350
220,benjamin hill,30.1667,-111.1,12.35,58,35,3.56,MX,1701314350
221,nikolayevsk-on-amure,53.1406,140.73,-14.29,68,16,3.67,RU,1701314350
222,mongoumba,3.6415,18.5936,21.85,96,100,0.49,CF,1701314350
223,port elizabeth,-33.918,25.5701,15.16,87,0,2.57,ZA,1701314220
224,afaahiti,-17.75,-149.2833,28.93,88,98,9.26,PF,1701314351
225,paita,-5.0892,-81.1144,20.42,80,10,4.12,PE,1701314351
226,rongelap,11.1635,166.8941,27.87,68,72,8.75,MH,1701314351
227,golden grove,-34.7833,138.7333,26.23,48,64,2.68,AU,1701314352
228,la'ie,21.6477,-157.9253,24.66,85,82,2.62,US,1701314352
229,brookings,44.3114,-96.7984,1.73,69,0,3.09,US,1701314352
230,kiboga,0.9161,31.7742,16.01,94,73,0.8,UG,1701314353
231,st. john's,47.5649,-52.7093,-0.34,90,40,8.75,CA,1701313596
232,alpine,32.835,-116.7664,12.93,86,75,0.0,US,1701314225
233,gagliano del capo,39.8442,18.3695,13.68,67,48,0.51,IT,1701314353
234,avarua,-21.2078,-159.775,27.03,69,75,5.66,CK,1701314106
235,salekhard,66.53,66.6019,-12.55,94,99,5.87,RU,1701314354
236,poxoreo,-15.8372,-54.3892,23.45,46,68,1.4,BR,1701314354
237,sao francisco,-15.9486,-44.8644,23.98,45,95,1.75,BR,1701314355
238,hadibu,12.65,54.0333,25.72,73,90,6.62,YE,1701314355
239,saudarkrokur,65.7461,-19.6394,1.64,87,100,1.59,IS,1701314355
240,constantia,44.1833,28.65,1.5,84,21,3.82,RO,1701314356
241,ancud,-41.8697,-73.8203,11.44,90,99,5.44,CL,1701314356
242,camalu,30.85,-116.0667,15.45,72,0,3.45,MX,1701314356
243,qarauyl,48.9451,79.255,4.51,39,100,5.22,KZ,1701314356
244,kirakira,-10.4544,161.9205,29.81,73,98,4.76,SB,1701314356
245,shahritus,37.2637,68.1385,10.4,88,95,0.92,TJ,1701314357
246,altamira,-3.2033,-52.2064,25.55,66,49,0.32,BR,1701314357
247,saint-philippe,-21.3585,55.7679,25.77,78,23,4.97,RE,1701314357
248,shimoda,34.6667,138.95,15.2,54,3,13.87,JP,1701314358
249,namdrik,5.5994,168.1028,28.12,77,100,6.55,MH,1701314358
250,mount gambier,-37.8333,140.7667,20.43,48,0,6.5,AU,1701313765
251,sarakhs,36.5449,61.1577,9.0,58,100,3.25,IR,1701314361
252,east london,-33.0153,27.9116,13.52,88,40,2.06,ZA,1701314361
253,novyy urengoy,66.0833,76.6333,-10.92,95,100,4.99,RU,1701314362
254,hassi messaoud,31.6804,6.0729,15.28,19,3,3.62,DZ,1701314362
255,gulf shores,30.246,-87.7008,12.22,52,96,3.47,US,1701314363
256,sainte-anne,16.2333,-61.3667,24.54,100,75,0.51,GP,1701314363
257,mbake,14.7903,-15.908,21.89,21,3,4.01,SN,1701314363
258,kavalerovo,44.2661,135.0572,-16.36,62,81,6.8,RU,1701314364
259,bikenibeu village,1.3673,173.1241,30.98,70,75,3.09,KI,1701314364
260,palmer,42.1584,-72.3287,-1.35,62,75,3.09,US,1701314156
261,chibougamau,49.9168,-74.3659,-8.21,93,100,4.12,CA,1701314087
262,labrador city,52.9463,-66.9114,-24.05,77,0,2.57,CA,1701314365
263,jahazpur,25.6167,75.2833,20.89,58,65,1.81,IN,1701314365
264,letlhakeng,-24.0944,25.0298,21.51,53,46,3.14,BW,1701314365
265,cole harbour,44.6724,-63.4751,-2.25,81,29,4.92,CA,1701314366
266,floro,61.5996,5.0328,-1.02,59,100,3.09,NO,1701313787
267,hamilton,39.1834,-84.5333,4.35,77,0,2.57,US,1701314366
268,bandar-e lengeh,26.5579,54.8807,20.06,73,8,3.09,IR,1701314366
269,at taj,24.2049,23.2857,14.35,35,6,2.69,LY,1701313767
270,fontanelas,38.8472,-9.4372,17.31,98,95,5.06,PT,1701314367
271,calama,-22.4667,-68.9333,14.27,19,0,2.06,CL,1701314262
272,zeya,53.75,127.2667,-11.95,48,5,1.48,RU,1701314099
273,holualoa,19.6228,-155.9522,27.1,71,75,8.75,US,1701314368
274,manismata,-2.4667,111.0333,31.73,61,91,1.59,ID,1701314368
275,tvoroyri,61.5556,-6.8111,5.98,69,98,12.61,FO,1701314368
276,port saint john's,-31.6229,29.5448,15.69,78,33,2.14,ZA,1701313794
277,pimentel,-6.8367,-79.9342,20.16,83,0,6.17,PE,1701314369
278,sarai,53.7458,41.0213,1.77,99,100,5.78,RU,1701314369
279,mana,5.6592,-53.7767,25.43,86,1,3.59,GF,1701313792
280,fort morgan,40.2503,-103.8,5.36,45,6,1.86,US,1701314370
281,kailua-kona,19.6406,-155.9956,29.17,70,75,8.75,US,1701314086
282,lido di ostia,41.7321,12.2765,13.71,60,40,5.66,IT,1701314370
283,severo-yeniseyskiy,60.3725,93.0408,-12.46,98,100,0.89,RU,1701313816
284,lautoka,-17.6167,177.4667,30.92,66,40,6.69,FJ,1701313609
285,suoyarvi,62.0833,32.35,-10.42,96,95,3.38,RU,1701314371
286,huilong,31.8111,121.655,10.0,48,25,6.57,CN,1701314371
287,del rio,29.3627,-100.8968,12.06,90,100,4.63,US,1701314205
288,novorozhdestvenskaya,45.8619,39.9542,7.1,82,100,3.46,RU,1701314372
289,kapa'a,22.0752,-159.319,23.99,84,75,6.17,US,1701314372
290,kupang,-10.1667,123.5833,30.32,89,75,3.09,ID,1701314373
291,ulety,51.3572,112.4849,-13.58,73,34,3.79,RU,1701314373
292,schwabisch hall,49.1113,9.7391,1.64,92,75,1.54,DE,1701314373
293,colonia,50.9333,6.95,2.14,91,20,1.03,DE,1701313637
294,fale old settlement,-9.3852,-171.2468,28.94,74,96,6.26,TK,1701314374
295,saint-paul,-21.0096,55.2707,26.67,88,6,4.06,RE,1701314374
296,fort bragg,35.139,-79.006,3.32,70,0,1.54,US,1701314374
297,capo d'orlando,38.1435,14.7305,14.67,56,4,2.78,IT,1701314374
298,san carlos de bariloche,-41.1456,-71.3082,8.86,76,20,5.14,AR,1701314104
299,taoudenni,22.6783,-3.9836,18.11,14,0,2.94,ML,1701314375
300,nuku'alofa,-21.1333,-175.2,29.19,84,75,5.14,TO,1701314375
301,kotlas,61.2611,46.6556,-12.19,98,67,0.89,RU,1701314376
302,yarkovo,57.4028,67.0786,-5.4,91,100,2.2,RU,1701314376
303,centerville,39.6284,-84.1594,3.05,77,0,3.09,US,1701314376
304,tazovsky,67.4667,78.7,-19.44,95,27,3.55,RU,1701314377
305,sena madureira,-9.0656,-68.6569,23.5,92,70,0.82,BR,1701314377
306,benguela,-12.5763,13.4055,24.4,93,100,3.22,AO,1701314377
307,maua,-23.6678,-46.4614,21.31,91,9,3.56,BR,1701314378
308,as sulayyil,20.4607,45.5779,17.3,57,0,4.35,SA,1701313811
309,gubin,51.9496,14.7284,-2.61,96,24,2.68,PL,1701314378
310,sitka,57.0531,-135.33,7.94,53,100,8.75,US,1701314378
311,angaur state,6.906,134.13,28.77,78,88,5.43,PW,1701313786
312,kimbe,-5.5502,150.1429,29.89,76,100,1.01,PG,1701314379
313,markovo,57.3206,107.0881,-12.18,93,100,1.85,RU,1701314379
314,ciudad dario,12.7314,-86.124,22.07,82,100,3.12,NI,1701314380
315,irymple,-34.25,142.1667,23.38,55,86,6.43,AU,1701314380
316,conde,-7.2597,-34.9075,24.7,88,75,2.06,BR,1701314380
317,alofi,-19.0595,-169.9187,28.94,65,75,5.66,NU,1701313788
318,at-bashi,41.1702,75.8106,-1.21,68,100,1.04,KG,1701314381
319,priob'ye,62.5206,65.5964,-14.43,98,86,1.25,RU,1701314381
320,nuuk,64.1835,-51.7216,3.34,81,100,5.14,GL,1701313500
321,colares,38.7992,-9.4469,17.96,98,93,8.94,PT,1701314381
322,kajaani,64.2273,27.7285,-9.97,100,82,1.03,FI,1701314382
323,bumba,2.1833,22.4667,21.38,97,100,0.32,CD,1701314382
324,vyazemskiy,47.5378,134.7525,-17.69,80,18,3.62,RU,1701314382
325,wewak,-3.5534,143.6268,29.33,75,91,3.36,PG,1701314382
326,inhambane,-23.865,35.3833,21.99,68,75,7.72,MZ,1701314382
327,pathein,16.7833,94.7333,25.27,64,98,4.34,MM,1701314382
328,nuriootpa,-34.4833,139.0,25.86,40,83,5.12,AU,1701314161
329,tazacorte,28.629,-17.9293,19.54,81,0,1.54,ES,1701314383
330,kahriz,34.3838,47.0553,-0.96,93,1,3.09,IR,1701314383
331,amga,60.8953,131.9608,-14.22,95,100,3.57,RU,1701314383
332,nadym,65.5333,72.5167,-7.6,95,100,5.14,RU,1701314383
333,dalhart,36.0595,-102.5133,6.38,65,0,5.14,US,1701314383
334,abancay,-13.6339,-72.8814,15.54,90,78,1.74,PE,1701314299
335,campina verde,-19.5356,-49.4864,22.25,83,100,0.81,BR,1701314383
336,mchinji,-13.7984,32.8802,19.88,79,100,0.82,MW,1701314384
337,kayangel,8.0823,134.7173,28.72,77,69,4.7,PW,1701314384
338,bintulu,3.1667,113.0333,30.23,79,40,3.09,MY,1701314384
339,sheregesh,52.9209,87.9869,-6.14,77,100,1.39,RU,1701314384
340,stutterheim,-32.5708,27.424,6.85,95,13,2.29,ZA,1701314384
341,chatham,51.3789,0.5279,0.17,70,41,0.89,GB,1701314384
342,bubaque,11.2833,-15.8333,27.93,58,3,3.68,GW,1701314384
343,pedernales,18.0384,-71.744,25.51,70,12,1.31,DO,1701314384
344,kwolla,8.9333,9.2833,25.17,28,76,1.86,NG,1701314384
345,mountain home,43.133,-115.6912,-4.21,86,98,0.45,US,1701313975
346,lahad datu,5.0268,118.327,28.67,79,100,1.13,MY,1701314385
347,valjevo,44.2751,19.8982,-1.23,86,54,2.91,RS,1701314385
348,owase,34.0667,136.2,13.03,54,35,4.43,JP,1701314385
349,lata,40.1629,-8.3327,17.12,98,100,2.17,PT,1701314385
350,abalak,58.1286,68.5944,-4.8,85,100,2.12,RU,1701314385
351,dumas,35.8656,-101.9732,9.19,66,0,5.66,US,1701314385
352,galesong,-5.3166,119.3661,32.01,67,70,2.12,ID,1701314385
353,sucre,-19.0333,-65.2627,17.24,66,67,1.66,BO,1701314385
354,antalaha,-14.9003,50.2788,24.47,88,76,1.23,MG,1701314385
355,toliara,-23.35,43.6667,25.59,82,30,1.33,MG,1701314386
356,popondetta,-8.7537,148.2534,33.9,50,97,3.19,PG,1701314386
357,kidal,18.4411,1.4078,23.1,14,0,3.82,ML,1701314386
358,chui,-33.6971,-53.4616,19.9,93,88,4.35,UY,1701314386
359,saipan,15.1355,145.701,30.39,74,75,6.69,MP,1701314386
360,villa gesell,-37.2639,-56.973,17.27,81,0,2.9,AR,1701314386
361,shalya,57.2471,58.7298,-4.02,95,100,2.12,RU,1701314386
362,la passe,45.5549,-0.8967,7.13,92,100,3.13,FR,1701314386
363,isafjordur,66.0755,-23.124,1.79,83,97,3.8,IS,1701314386
364,yanam,16.7333,82.2167,27.29,64,64,4.3,IN,1701314387
365,tangalle,6.024,80.7911,26.53,79,90,0.89,LK,1701314387
366,culebra,18.303,-65.301,27.32,66,26,7.4,PR,1701314387
367,aasiaat,68.7098,-52.8699,-3.11,78,78,3.51,GL,1701314387
368,dunedin,-45.8742,170.5036,10.45,82,100,0.89,NZ,1701314387
369,englewood,39.6478,-104.9878,6.56,35,20,0.0,US,1701314387
370,veraval,20.9,70.3667,21.99,64,0,4.03,IN,1701314387
371,kristiansund,63.1115,7.732,-1.64,64,100,2.06,NO,1701314387
372,wynyard,-41.0,145.7167,17.32,56,99,4.96,AU,1701314387
373,zhosaly,45.4878,64.0781,-0.8,69,0,2.39,KZ,1701314388
374,hovd,48.0056,91.6419,-11.78,93,65,0.56,MN,1701314388
375,edd,13.9297,41.6925,26.88,53,23,4.15,ER,1701314388
376,moyynkum,44.2914,72.9469,5.86,67,100,3.38,KZ,1701314388
377,amarante do maranhao,-5.5667,-46.7422,24.0,75,0,0.64,BR,1701314388
378,tamanrasset,22.785,5.5228,7.95,19,0,0.0,DZ,1701314388
379,butembo,0.15,29.2833,14.18,98,97,0.96,CD,1701314388
380,general conesa,-40.1,-64.4333,24.33,25,0,7.74,AR,1701314389
381,moroni,-11.7022,43.2551,26.23,78,43,1.99,KM,1701314389
382,kilju,40.9642,129.3278,-3.51,22,0,1.92,KP,1701314389
383,levuka,50.1834,-105.4011,-1.1,81,9,6.76,CA,1701314389
384,villa ojo de agua,-29.5,-63.6938,16.36,95,98,9.02,AR,1701314389
385,yelizovo,53.1873,158.3805,-3.92,62,75,2.0,RU,1701314389
386,sao miguel do araguaia,-13.275,-50.1628,26.49,37,96,0.66,BR,1701314389
387,ciudad constitucion,25.0369,-111.6644,20.02,66,0,5.74,MX,1701314389
388,sao felix do xingu,-6.6447,-51.995,26.84,57,98,0.93,BR,1701314390
389,farah,32.5,62.5,10.34,54,0,1.42,AF,1701314390
390,manjeshvar,12.7,74.8833,28.66,74,100,3.07,IN,1701314390
391,ardestan,33.3761,52.3694,9.76,51,0,0.93,IR,1701314390
392,sanandaj,35.3144,46.9923,-1.99,93,4,1.03,IR,1701314390
393,paszto,47.9202,19.6983,-1.88,80,100,1.52,HU,1701314390
394,srandakan,-7.9386,110.2506,29.09,74,62,4.88,ID,1701314390
395,tughyl,47.7252,84.2063,3.16,47,94,5.1,KZ,1701314391
396,quang ngai,15.1167,108.8,25.72,87,97,2.91,VN,1701314391
397,adrar,20.5022,-10.0711,17.21,15,0,3.06,MR,1701314391
398,crane,31.3974,-102.3501,10.03,85,78,9.0,US,1701314391
399,yallahs,17.8748,-76.5624,27.85,85,18,2.68,JM,1701314391
400,todos santos,23.45,-110.2167,23.02,80,1,4.47,MX,1701314391
401,aswan,24.0934,32.907,18.0,28,0,4.22,EG,1701314391
402,ngetkib,7.3645,134.5148,26.14,94,100,4.63,PW,1701314391
403,muscat,23.6139,58.5922,22.01,59,0,1.14,OM,1701314108
404,quincy,42.2529,-71.0023,0.12,65,0,3.6,US,1701314374
405,pandan,14.0453,124.1694,28.33,80,32,5.5,PH,1701314392
406,chateaudun,48.0833,1.3333,4.22,87,100,2.58,FR,1701314392
407,piti village,13.4626,144.6933,32.49,73,20,9.77,GU,1701314392
408,arbelaez,4.2725,-74.4151,18.25,77,100,2.42,CO,1701314392
409,dakhla,23.6848,-15.958,19.66,51,100,1.46,EH,1701314392
410,murun-kuren,49.6342,100.1625,-15.67,76,10,1.54,MN,1701314393
411,sanga-sanga,5.0725,119.7853,27.86,78,100,2.83,PH,1701314393
412,vico del gargano,41.8983,15.9576,4.7,67,42,4.66,IT,1701314393
413,anqing,30.5092,117.0506,8.72,31,99,6.61,CN,1701314393
414,emerald,-23.5333,148.1667,34.63,24,3,2.43,AU,1701314393
415,shalkar,47.8288,59.6258,-1.18,76,32,3.12,KZ,1701314393
416,ulsteinvik,62.3432,5.8487,0.97,67,100,2.24,NO,1701314393
417,fortuna foothills,32.6578,-114.4119,15.86,50,20,3.09,US,1701314191
418,caleta de carquin,-11.0925,-77.6267,19.35,86,50,4.46,PE,1701314394
419,conduaga,8.862,117.4893,30.86,66,97,1.12,PH,1701314394
420,portland,45.5234,-122.6762,4.34,76,100,3.13,US,1701313771
421,egilsstadir,65.2653,-14.3948,1.95,69,75,4.12,IS,1701314394
422,hasaki,35.7333,140.8333,17.94,34,1,4.47,JP,1701314394
423,anandnagar,27.1,83.2833,21.5,53,22,1.36,IN,1701314394
424,san patricio,28.017,-97.5169,20.91,87,100,5.41,US,1701314394
425,codrington,-38.2667,141.9667,18.09,61,96,9.18,AU,1701314394
426,caconda,-13.7333,15.0667,17.17,92,100,1.28,AO,1701314395
427,hami,42.8,93.45,2.41,22,0,0.26,CN,1701314395
428,wamba,8.9333,8.6,23.48,34,13,1.61,NG,1701314395
429,nchelenge,-9.3451,28.734,20.99,89,100,0.82,ZM,1701314395
430,sisimiut,66.9395,-53.6735,0.72,72,99,4.17,GL,1701314395
431,renqiu,38.6989,116.0936,-0.34,23,0,0.91,CN,1701314395
432,ambon,-3.6954,128.1814,32.08,70,40,4.12,ID,1701314395
433,as suwayq,23.8494,57.4386,23.86,63,0,0.49,OM,1701314395
434,tsiombe,-25.3,45.4833,24.41,82,45,2.67,MG,1701314395
435,ouarzazat,30.9189,-6.8934,8.16,29,0,1.54,MA,1701314395
436,lagoa vermelha,-28.2086,-51.5258,17.67,96,0,0.35,BR,1701314331
437,basco,20.4487,121.9702,25.79,85,39,9.37,PH,1701313802
438,yichun,47.7,128.9,-13.9,80,100,4.74,CN,1701314396
439,taseyevo,57.2169,94.8978,-12.59,77,100,1.34,RU,1701314396
440,ocumare del tuy,10.1165,-66.7761,25.34,98,16,1.43,VE,1701314396
441,nishinoomote,30.7333,131.0,15.62,74,56,11.15,JP,1701313807
442,balabac,7.9868,117.0645,28.89,81,96,7.35,PH,1701314396
443,banda aceh,5.5577,95.3222,26.85,81,100,2.9,ID,1701314396
444,ironwood,46.4547,-90.171,1.45,64,0,5.66,US,1701314396
445,wakkanai,45.4094,141.6739,-4.01,77,75,7.2,JP,1701314396
446,semirom,31.4167,51.5667,2.29,38,0,0.46,IR,1701314397
447,alachua,29.7086,-82.3332,6.14,73,0,0.0,US,1701314397
448,cabedelo,-6.9811,-34.8339,25.37,73,63,6.09,BR,1701314397
449,la peca,-5.6111,-78.435,20.82,84,48,1.75,PE,1701314349
450,aleksandrovskoye,44.7142,43.0008,3.99,82,99,2.27,RU,1701314397
451,hecun,36.5333,114.1111,3.67,18,21,1.17,CN,1701314397
452,spanish wells,26.323,-81.7957,16.99,61,0,2.06,US,1701314397
453,sefaatli,39.5043,34.7563,8.36,69,100,2.5,TR,1701314397
454,vangaindrano,-23.35,47.6,24.06,88,40,1.08,MG,1701314397
455,padampur,29.6833,73.6167,19.62,37,74,1.66,IN,1701314397
456,nasir,15.5894,32.5634,25.97,34,70,5.28,SD,1701314398
457,grand falls-windsor,48.9332,-55.6649,-3.05,88,44,0.45,CA,1701314398
458,labasa,-16.4167,179.3833,30.34,68,97,4.76,FJ,1701314398
459,kincardine,56.0667,-3.7167,2.15,73,21,1.68,GB,1701314398
460,songkhla,6.8333,100.6667,26.03,91,100,1.84,TH,1701314398
461,port douglas,-16.4833,145.4667,29.26,65,20,3.09,AU,1701314398
462,san andres,12.5847,-81.7006,29.01,84,20,6.17,CO,1701314398
463,nantucket,41.2835,-70.0995,4.06,63,100,3.6,US,1701314398
464,hobyo,5.3505,48.5268,26.27,76,94,7.97,SO,1701313815
465,caetes,-8.7731,-36.6225,16.83,95,18,2.46,BR,1701314398
466,bonthe,7.5264,-12.505,25.53,84,93,0.21,SL,1701314399
467,antofagasta,-23.65,-70.4,17.6,81,44,1.66,CL,1701314151
468,jaguaruna,-28.615,-49.0256,20.87,94,100,0.79,BR,1701314399
469,timimoun,29.2639,0.231,14.1,21,0,2.08,DZ,1701314399
470,port macquarie,-31.4333,152.9167,31.61,44,6,1.71,AU,1701314178
471,shenzhen,22.5455,114.0683,26.79,64,47,2.68,CN,1701314352
472,dolores,-36.3132,-57.6792,16.22,86,1,2.13,AR,1701314399
473,armacao de buzios,-22.7469,-41.8817,26.03,90,100,6.14,BR,1701314313
474,barra de santo antonio,-9.4047,-35.5072,23.6,76,8,2.37,BR,1701314338
475,lerwick,60.1545,-1.1494,5.0,73,100,8.32,GB,1701314399
476,kani keli,-12.9536,45.1033,27.59,75,41,4.53,YT,1701314399
477,lincheng,19.9078,109.6858,25.81,82,100,6.95,CN,1701314400
478,miri,4.4148,114.0089,31.08,79,40,2.06,MY,1701314400
479,rawson,-43.3002,-65.1023,19.84,37,4,6.81,AR,1701314400
480,kargopol',61.5071,38.9456,-11.9,95,97,2.85,RU,1701314400
481,ascension,30.2169,-90.9001,11.14,71,0,0.0,US,1701314401
482,aracuai,-16.8497,-42.0703,24.06,65,57,1.78,BR,1701314401
483,gaspe,48.8334,-64.4819,-5.88,53,100,4.12,CA,1701314401
484,goure,13.9835,10.2704,22.84,17,9,3.95,NE,1701314401
485,bodaybo,57.8506,114.1933,-23.45,98,92,0.28,RU,1701314401
486,svetogorsk,61.1121,28.8632,-4.23,90,100,3.58,RU,1701314401
487,luis correia,-2.8792,-41.6669,26.7,78,2,5.19,BR,1701314402
488,wagar,16.1525,36.2032,22.63,71,24,3.49,SD,1701314402
489,singkil,-7.9855,111.4161,31.74,60,39,1.01,ID,1701314403
490,tukrah,32.5341,20.5791,17.84,72,80,2.38,LY,1701314404
491,weleri,-6.9713,110.0666,32.94,65,71,2.1,ID,1701314404
492,nosy varika,-20.5833,48.5333,25.3,88,2,3.82,MG,1701314405
493,campo gallo,-26.5833,-62.85,19.9,91,100,5.93,AR,1701314405
494,bandarbeyla,9.4942,50.8122,25.98,71,100,8.92,SO,1701314405
495,axim,4.8699,-2.2405,26.03,86,97,2.45,GH,1701314405
496,koesan,36.8108,127.7947,-1.45,41,2,4.65,KR,1701314406
497,port lincoln,-34.7333,135.8667,18.34,73,98,5.78,AU,1701314406
498,beledweyne,4.7358,45.2036,24.75,68,53,6.31,SO,1701314406
499,kalmunai,7.4167,81.8167,26.12,87,97,3.59,LK,1701314407
500,siloam springs,36.1881,-94.5405,10.55,60,0,4.63,US,1701314407
501,zahedan,29.4963,60.8629,6.95,87,0,2.06,IR,1701314407
502,hays,30.0502,-98.0336,15.71,78,100,1.34,US,1701314407
503,praia da vitoria,38.7333,-27.0667,15.14,67,75,15.58,PT,1701314408
504,ghat,24.9647,10.1728,15.91,20,0,1.31,LY,1701314408
505,capanema,-1.1958,-47.1808,22.61,97,11,1.13,BR,1701314408
506,plymouth,41.8334,-70.8328,2.03,75,0,0.0,US,1701314409
507,cannonvale,-20.2833,148.7,28.66,67,12,8.16,AU,1701314409
508,brisas de zicatela,15.8369,-97.0419,25.29,65,75,3.09,MX,1701314409
509,dobrinka,52.1653,40.4731,0.46,88,100,5.35,RU,1701314409
510,arish,31.1316,33.7984,18.0,63,97,0.92,EG,1701314411
511,charters towers,-20.1,146.2667,37.07,26,26,3.2,AU,1701314411
512,el alto,-4.2714,-81.2147,19.6,80,12,4.97,PE,1701314411
513,magadan,59.5667,150.8,-19.15,80,56,1.74,RU,1701314411
514,pisco,-13.7,-76.2167,19.45,82,0,4.63,PE,1701314411
515,la gi,10.6667,107.7833,29.4,69,79,6.99,VN,1701314412
516,paripiranga,-10.6875,-37.8617,18.7,89,0,2.24,BR,1701314338
517,alice springs,-23.7,133.8833,30.75,45,82,10.29,AU,1701314412
518,arraial do cabo,-22.9661,-42.0278,23.82,91,100,6.43,BR,1701314412
519,mozarlandia,-14.7447,-50.5706,26.19,37,31,1.37,BR,1701314412
520,port-gentil,-0.7193,8.7815,24.99,86,100,3.67,GA,1701314413
521,lazaro cardenas,17.9583,-102.2,25.83,84,75,1.41,MX,1701314413
522,kabare,-2.4683,28.8242,16.7,99,100,0.86,CD,1701314413
523,vygonichi,53.0985,34.0673,-3.51,94,100,6.95,RU,1701314413
524,brezina,33.0989,1.2608,10.32,24,51,1.79,DZ,1701314413
525,klyuchi,52.2667,79.1667,1.92,66,100,4.86,RU,1701314414
526,summerside,46.3959,-63.7876,-4.93,58,8,4.63,CA,1701314414
527,mogocha,53.7333,119.7667,-12.84,67,100,1.08,RU,1701314414
528,dutsen wai,10.8501,8.199,20.22,27,5,2.7,NG,1701314414
529,mosjoen,65.836,13.1908,-4.71,68,20,3.09,NO,1701314415
530,sola,-13.8833,167.55,27.11,83,99,6.72,VU,1701314415
531,sao vicente,-23.9631,-46.3919,26.26,26,6,2.05,BR,1701314415
532,ciutadella,40.0011,3.8414,17.45,80,87,8.09,ES,1701314415
533,kencong,-8.2833,113.3667,29.44,69,61,2.73,ID,1701314416
534,gulma,12.6423,4.3555,25.32,27,44,3.04,NG,1701314416
535,troitskaya,43.3056,44.9789,3.98,61,93,2.24,RU,1701314416
536,opuwo,-18.0607,13.84,21.22,65,95,1.9,NA,1701314416
537,licheng,23.2955,113.8284,26.12,55,79,2.79,CN,1701314417
538,ola,59.5833,151.2833,-18.81,77,27,2.3,RU,1701314417
539,karbala,32.616,44.0249,12.93,52,0,4.11,IQ,1701314417
540,seaside,36.6111,-121.8516,14.52,86,20,1.54,US,1701314131
541,karratha,-20.7377,116.8463,31.59,30,0,3.59,AU,1701314417
542,mount pearl,47.5166,-52.7813,-1.69,89,20,9.26,CA,1701314418
543,qamdo,31.1667,97.2333,-1.44,38,89,1.92,CN,1701314418
544,dryden,49.7833,-92.7503,-0.84,86,100,3.6,CA,1701314418
545,smithers,54.7804,-127.1743,-0.82,93,75,1.03,CA,1701314419
546,takum,7.2667,9.9833,24.31,72,42,0.18,NG,1701314419
547,rio grande,-32.035,-52.0986,21.08,92,100,5.65,BR,1701314419
548,happy valley-goose bay,53.3168,-60.3315,-10.83,73,75,4.63,CA,1701314372
549,andergrove,-21.0833,149.1833,37.03,72,3,7.51,AU,1701314420
550,sumbawa besar,-8.5,117.4333,32.93,56,54,2.57,ID,1701314420
551,guaimaca,14.5333,-86.8167,18.32,96,82,0.94,HN,1701314422
552,avola,36.9113,15.1395,14.45,73,0,2.52,IT,1701314423
553,vrangel',42.7297,133.0839,-9.0,53,62,7.03,RU,1701314423
554,severnoye,56.3491,78.3619,-5.01,80,100,3.13,RU,1701314425
555,ntungamo,-0.8833,29.65,18.04,97,100,1.6,UG,1701314426
556,kerrville,30.0474,-99.1403,13.3,96,100,3.09,US,1701314401
557,sao gabriel da cachoeira,-0.1303,-67.0892,22.97,99,100,0.73,BR,1701314426
558,kapuskasing,49.4169,-82.4331,-0.95,80,100,6.69,CA,1701314426
